{
  "rows": [
    {
      "id": 1,
      "number": 203483924,
      "name": "יואב שרון",
      "state": "green",
      "hours_h": "4:00",
      "hours_ya": "4:00",
      "hours": "155:00",
      "hours_overall": "159:00"
    },
    {
      "id": 2,
      "number": 203483924,
      "name": "יואב שרון",
      "state": "green",
      "hours_h": "4:00",
      "hours_ya": "4:00",
      "hours": "155:00",
      "hours_overall": "159:00"
    },
    {
      "id": 3,
      "number": 203483924,
      "name": "יואב שרון",
      "state": "yellow",
      "hours_h": "4:00",
      "hours_ya": "4:00",
      "hours": "155:00",
      "hours_overall": "159:00"
    },
    {
      "id": 4,
      "number": 203483924,
      "name": "יואב שרון",
      "state": "green",
      "hours_h": "4:00",
      "hours_ya": "4:00",
      "hours": "155:00",
      "hours_overall": "159:00"
    },
    {
      "id": 5,
      "number": 203483924,
      "name": "יואב שרון",
      "state": "yellow",
      "hours_h": "",
      "hours_ya": "",
      "hours": "",
      "hours_overall": ""
    },
    {
      "id": 6,
      "number": 203483924,
      "name": "יואב שרון",
      "state": "green",
      "hours_h": "4:00",
      "hours_ya": "4:00",
      "hours": "155:00",
      "hours_overall": "159:00"
    },
    {
      "id": 7,
      "number": 203483924,
      "name": "יואב שרון",
      "state": "green",
      "hours_h": "4:00",
      "hours_ya": "4:00",
      "hours": "155:00",
      "hours_overall": "159:00"
    },
    {
      "id": 8,
      "number": 203483924,
      "name": "יואב שרון",
      "state": "yellow",
      "hours_h": "4:00",
      "hours_ya": "4:00",
      "hours": "155:00",
      "hours_overall": "159:00"
    },
    {
      "id": 9,
      "number": 203483924,
      "name": "יואב שרון",
      "state": "yellow",
      "hours_h": "4:00",
      "hours_ya": "4:00",
      "hours": "155:00",
      "hours_overall": ""
    },
    {
      "id": 10,
      "number": 203483924,
      "name": "יואב שרון",
      "state": "green",
      "hours_h": "4:00",
      "hours_ya": "4:00",
      "hours": "155:00",
      "hours_overall": ""
    }
  ]
}
